City_ID,City,Lat,Lng,Max Temp,Humidity,Cloudiness,Wind Speed,Country,Date
0,Rikitea,-23.1203,-134.9692,79.79,74,4,1.5,PF,2021-03-04 19:47:54
1,Castro,-24.7911,-50.0119,70.54,87,89,8.81,BR,2021-03-04 19:51:34
2,Haines Junction,60.7522,-137.5108,19.4,63,100,4.61,CA,2021-03-04 19:51:34
3,Dingle,10.9995,122.6711,74.62,91,24,7.74,PH,2021-03-04 19:51:34
4,Busselton,-33.65,115.3333,66.0,98,81,7.29,AU,2021-03-04 19:51:34
5,Ushuaia,-54.8,-68.3,59.0,51,20,5.75,AR,2021-03-04 19:51:35
6,Airai,-8.9266,125.4092,59.07,100,41,1.66,TL,2021-03-04 19:51:35
7,Gat,31.61,34.7642,54.0,100,7,4.56,IL,2021-03-04 19:51:35
8,Shuangcheng,45.35,126.2833,19.4,86,75,17.9,CN,2021-03-04 19:51:36
9,Punta Arenas,-53.15,-70.9167,64.4,27,0,19.57,CL,2021-03-04 19:49:08
10,Mumbwa,-14.9783,27.0619,64.38,96,90,3.56,ZM,2021-03-04 19:51:36
11,Dengzhou,37.8086,120.7508,43.05,77,62,10.63,CN,2021-03-04 19:51:36
12,Kapaa,22.0752,-159.319,71.6,68,40,20.71,US,2021-03-04 19:51:37
13,Hasaki,35.7333,140.8333,46.99,100,75,2.3,JP,2021-03-04 19:51:37
14,Sola,-13.8833,167.55,79.34,88,100,25.9,VU,2021-03-04 19:51:37
15,Okha,53.5739,142.9478,-5.53,91,100,10.38,RU,2021-03-04 19:49:42
16,Katsuura,35.1333,140.3,51.8,82,75,1.14,JP,2021-03-04 19:51:38
17,Albany,42.6001,-73.9662,34.0,35,5,10.0,US,2021-03-04 19:51:38
18,Bengkulu,-3.8004,102.2655,76.68,85,100,4.88,ID,2021-03-04 19:51:38
19,Hobart,-42.8794,147.3294,52.0,58,40,17.27,AU,2021-03-04 19:51:38
20,Barrow,71.2906,-156.7887,-25.6,68,1,10.36,US,2021-03-04 19:49:08
21,Madanapalle,13.55,78.5,64.18,68,0,4.32,IN,2021-03-04 19:51:39
22,Abu Samrah,35.3029,37.1841,47.88,88,13,11.34,SY,2021-03-04 19:51:39
23,Norman Wells,65.282,-126.8329,-16.6,69,75,2.3,CA,2021-03-04 19:51:40
24,Hobyo,5.3505,48.5268,78.04,77,100,17.18,SO,2021-03-04 19:49:36
25,Renqiu,38.6989,116.0936,49.1,80,100,5.3,CN,2021-03-04 19:51:40
26,Atuona,-9.8,-139.0333,80.08,73,2,12.62,PF,2021-03-04 19:47:54
27,Georgetown,5.4112,100.3354,80.6,89,20,2.3,MY,2021-03-04 19:47:22
28,Lasa,46.6166,10.7002,43.0,75,0,1.57,IT,2021-03-04 19:51:41
29,Edd,13.9297,41.6925,82.49,54,0,14.5,ER,2021-03-04 19:51:41
30,Ibotirama,-12.1853,-43.2206,88.38,46,24,4.07,BR,2021-03-04 19:51:41
31,Senanga,-16.1167,23.2667,67.23,77,5,3.98,ZM,2021-03-04 19:51:42
32,Hilo,19.7297,-155.09,73.4,64,1,6.02,US,2021-03-04 19:49:20
33,Chumikan,54.7183,135.315,-12.32,83,98,5.17,RU,2021-03-04 19:51:42
34,Sioux Lookout,50.1001,-91.917,33.8,44,75,3.44,CA,2021-03-04 19:50:47
35,Tumpat,6.1978,102.171,80.6,78,20,6.91,MY,2021-03-04 19:51:43
36,Puerto Leguizamo,-0.1934,-74.7819,90.57,46,51,4.0,CO,2021-03-04 19:51:43
37,Lompoc,34.6391,-120.4579,60.8,55,20,9.22,US,2021-03-04 19:50:36
38,Nanakuli,21.3906,-158.1547,73.4,64,1,6.91,US,2021-03-04 19:51:43
39,Bathsheba,13.2167,-59.5167,82.4,61,40,18.41,BB,2021-03-04 19:51:44
40,Beringovskiy,63.05,179.3167,-5.8,89,77,5.39,RU,2021-03-04 19:51:44
41,Batemans Bay,-35.7167,150.1833,61.0,72,0,1.01,AU,2021-03-04 19:50:22
42,Prainha,-1.8,-53.48,89.04,50,35,4.99,BR,2021-03-04 19:51:44
43,Qaanaaq,77.484,-69.3632,-23.57,69,0,8.28,GL,2021-03-04 19:51:44
44,Jamestown,42.097,-79.2353,28.0,89,90,14.94,US,2021-03-04 19:51:45
45,Bluff,-46.6,168.3333,55.0,79,100,4.0,NZ,2021-03-04 19:51:45
46,Hermanus,-34.4187,19.2345,60.01,89,99,7.05,ZA,2021-03-04 19:49:17
47,Mataura,-46.1927,168.8643,55.0,79,99,4.0,NZ,2021-03-04 19:51:45
48,Port Elizabeth,-33.918,25.5701,69.8,88,75,16.11,ZA,2021-03-04 19:51:46
49,New Norfolk,-42.7826,147.0587,52.0,66,68,1.99,AU,2021-03-04 19:49:21
50,Kavieng,-2.5744,150.7967,82.45,77,85,10.02,PG,2021-03-04 19:51:46
51,Ndele,8.4109,20.6473,80.26,16,65,5.53,CF,2021-03-04 19:51:46
52,Christchurch,-43.5333,172.6333,55.0,100,3,1.14,NZ,2021-03-04 19:48:26
53,Butaritari,3.0707,172.7902,81.59,79,81,19.01,KI,2021-03-04 19:51:48
54,Berlin,52.5244,13.4105,39.99,87,75,6.91,DE,2021-03-04 19:48:36
55,Suhbaatar,50.2314,106.2078,-2.2,87,0,2.84,MN,2021-03-04 19:51:48
56,Husavik,66.0449,-17.3389,41.0,70,20,12.66,IS,2021-03-04 19:49:49
57,Khatanga,71.9667,102.5,-27.2,78,0,12.15,RU,2021-03-04 19:51:49
58,Llangefni,53.2556,-4.3106,42.8,81,90,8.05,GB,2021-03-04 19:51:49
59,Alta Floresta,-9.8756,-56.0861,89.6,55,40,2.3,BR,2021-03-04 19:51:50
60,Iskateley,67.6803,53.1512,-1.1,93,100,9.35,RU,2021-03-04 19:51:50
61,Nicolas Bravo,18.45,-88.9167,89.01,45,40,11.5,MX,2021-03-04 19:51:50
62,Almeirim,-1.5233,-52.5817,87.89,58,24,2.93,BR,2021-03-04 19:51:50
63,Vila Do Maio,15.1333,-23.2167,71.6,68,20,21.85,CV,2021-03-04 19:51:50
64,Egvekinot,66.3167,-179.1667,-0.36,95,100,31.54,RU,2021-03-04 19:49:17
65,Bredasdorp,-34.5322,20.0403,59.0,100,28,1.14,ZA,2021-03-04 19:51:51
66,Celestun,20.8667,-90.4,78.39,71,27,13.65,MX,2021-03-04 19:51:51
67,Murgab,37.4966,61.9714,46.4,57,75,4.61,TM,2021-03-04 19:51:51
68,Ponta Do Sol,32.6667,-17.1,60.01,73,51,3.0,PT,2021-03-04 19:51:52
69,Acarau,-2.8856,-40.12,82.72,71,90,14.47,BR,2021-03-04 19:51:52
70,San Rafael,-34.6177,-68.3301,92.1,22,51,10.54,AR,2021-03-04 19:51:52
71,Pennathur,12.25,79.2333,69.66,78,0,2.71,IN,2021-03-04 19:51:53
72,Hualmay,-11.0964,-77.6139,77.9,66,95,8.41,PE,2021-03-04 19:49:08
73,Bayeux,-7.125,-34.9322,82.4,83,75,18.41,BR,2021-03-04 19:51:53
74,San Luis,-33.295,-66.3356,89.65,26,20,10.31,AR,2021-03-04 19:50:04
75,Coahuayana,18.7333,-103.6833,86.0,30,1,9.22,MX,2021-03-04 19:51:54
76,Nelson Bay,-32.7167,152.15,61.0,82,0,10.36,AU,2021-03-04 19:51:54
77,Alofi,-19.0595,-169.9187,80.6,83,100,10.36,NU,2021-03-04 19:51:54
78,Port Augusta,-32.5,137.7667,57.2,88,0,6.91,AU,2021-03-04 19:51:55
79,Chuy,-33.6971,-53.4616,75.09,82,100,10.54,UY,2021-03-04 19:51:55
80,Paamiut,61.994,-49.6678,41.56,65,99,6.73,GL,2021-03-04 19:51:56
81,Chaoyang,41.5703,120.4586,33.3,78,87,19.19,CN,2021-03-04 19:51:56
82,Saint-Philippe,-21.3585,55.7679,78.8,78,40,4.61,RE,2021-03-04 19:51:57
83,Pucallpa,-8.3791,-74.5539,86.0,62,75,11.5,PE,2021-03-04 19:51:57
84,Partapur,23.6,74.1667,71.96,20,0,4.23,IN,2021-03-04 19:51:57
85,Fortuna,40.5982,-124.1573,59.0,55,75,1.99,US,2021-03-04 19:51:57
86,Vitim,59.4511,112.5578,-25.01,81,0,4.25,RU,2021-03-04 19:51:57
87,Kahului,20.8947,-156.47,73.4,64,20,9.22,US,2021-03-04 19:51:58
88,Dikson,73.5069,80.5464,-28.98,83,3,13.51,RU,2021-03-04 19:51:58
89,Upernavik,72.7868,-56.1549,-12.75,83,58,16.37,GL,2021-03-04 19:51:58
90,Rosamorada,22.1222,-105.2058,94.32,22,62,10.0,MX,2021-03-04 19:51:58
91,Banapur,19.7833,85.1833,72.7,79,1,6.08,IN,2021-03-04 19:51:59
92,Erenhot,43.6475,111.9767,16.63,69,43,17.18,CN,2021-03-04 19:51:59
93,Grindavik,63.8424,-22.4338,41.0,87,75,6.91,IS,2021-03-04 19:49:19
94,Koroni,36.8,21.95,46.4,81,0,4.61,GR,2021-03-04 19:51:59
95,Mudon,16.2578,97.7164,76.46,77,1,0.6,MM,2021-03-04 19:52:00
96,Kaitangata,-46.2817,169.8464,55.0,58,100,6.38,NZ,2021-03-04 19:49:52
97,Kralendijk,12.15,-68.2667,84.2,61,75,14.97,BQ,2021-03-04 19:51:03
98,Bubaque,11.2833,-15.8333,77.76,72,0,14.67,GW,2021-03-04 19:52:00
99,Clyde River,70.4692,-68.5914,-18.4,76,20,10.36,CA,2021-03-04 19:52:00
100,Port Alfred,-33.5906,26.891,69.01,90,46,10.8,ZA,2021-03-04 19:47:18
101,Bethel,41.3712,-73.414,37.0,48,84,5.99,US,2021-03-04 19:52:01
102,Mount Dora,28.8025,-81.6445,75.99,35,1,5.75,US,2021-03-04 19:52:01
103,Lagos,6.5833,3.75,82.2,81,36,9.04,NG,2021-03-04 19:49:15
104,Carnarvon,-24.8667,113.6333,73.4,88,40,8.05,AU,2021-03-04 19:52:01
105,Axim,4.8699,-2.2405,80.73,87,1,8.63,GH,2021-03-04 19:52:02
106,Galle,6.0367,80.217,75.2,79,0,6.69,LK,2021-03-04 19:52:02
107,Miri,4.4148,114.0089,75.2,94,40,2.3,MY,2021-03-04 19:49:51
108,Saint-Pierre,-21.3393,55.4781,78.8,78,40,4.61,RE,2021-03-04 19:52:02
109,Provideniya,64.3833,-173.3,13.12,93,100,4.07,RU,2021-03-04 19:52:03
110,Lake Havasu City,34.4839,-114.3224,64.4,42,1,3.44,US,2021-03-04 19:52:03
111,Ribeira Grande,38.5167,-28.7,60.8,67,20,4.61,PT,2021-03-04 19:52:03
112,La Ronge,55.1001,-105.2842,28.4,69,100,3.44,CA,2021-03-04 19:52:03
113,Port Macquarie,-31.4333,152.9167,61.0,94,5,3.0,AU,2021-03-04 19:52:03
114,Sorong,-0.8833,131.25,80.24,79,95,4.54,ID,2021-03-04 19:52:03
115,Ust-Nera,64.5667,143.2,-28.43,75,100,4.81,RU,2021-03-04 19:52:04
116,Caraquet,47.7941,-64.9386,15.8,57,99,19.57,CA,2021-03-04 19:52:04
117,San Patricio,28.017,-97.5169,78.8,50,40,12.66,US,2021-03-04 19:52:04
118,Yellowknife,62.456,-114.3525,-5.01,71,75,16.11,CA,2021-03-04 19:49:11
119,Yunhe,34.0833,119.7167,43.21,90,48,5.95,CN,2021-03-04 19:52:05
120,San Andres,12.5847,-81.7006,84.2,65,40,8.05,CO,2021-03-04 19:52:05
121,Emerald,-23.5333,148.1667,71.6,78,0,3.44,AU,2021-03-04 19:52:05
122,Hithadhoo,-0.6,73.0833,82.83,70,93,8.57,MV,2021-03-04 19:52:06
123,Dong Hoi,17.4833,106.6,70.9,92,49,0.74,VN,2021-03-04 19:52:06
124,Puerto Ayora,-0.7393,-90.3518,84.2,79,75,9.22,EC,2021-03-04 19:52:06
125,Richards Bay,-28.783,32.0377,70.86,78,0,5.77,ZA,2021-03-04 19:52:06
126,Yatou,37.15,122.3833,40.46,95,35,7.36,CN,2021-03-04 19:52:07
127,Vaini,-21.2,-175.2,77.0,94,75,2.3,TO,2021-03-04 19:52:07
128,College,64.8569,-147.8028,3.0,71,75,4.61,US,2021-03-04 19:52:07
129,Novikovo,51.1537,37.8879,36.18,91,100,11.88,RU,2021-03-04 19:52:08
130,Komsomolskiy,40.4272,71.7189,46.4,76,90,2.3,UZ,2021-03-04 19:52:08
131,Isangel,-19.55,169.2667,78.8,94,90,20.71,VU,2021-03-04 19:52:08
132,Cidreira,-30.1811,-50.2056,79.12,74,95,5.35,BR,2021-03-04 19:49:10
133,Hearst,49.6835,-83.6665,10.4,56,8,6.91,CA,2021-03-04 19:52:09
134,Ust-Charyshskaya Pristan,52.3934,83.6635,15.42,79,98,4.92,RU,2021-03-04 19:52:09
135,Lavrentiya,65.5833,-171.0,1.44,92,100,26.24,RU,2021-03-04 19:52:09
136,Constitucion,-35.3333,-72.4167,72.27,59,0,18.28,CL,2021-03-04 19:52:09
137,Kangaatsiaq,68.3065,-53.4641,18.77,96,100,12.21,GL,2021-03-04 19:52:10
138,Cape Town,-33.9258,18.4232,66.99,63,20,11.5,ZA,2021-03-04 19:49:11
139,Thompson,55.7435,-97.8558,24.8,58,20,2.3,CA,2021-03-04 19:50:01
140,Saskylakh,71.9167,114.0833,-33.48,81,88,6.08,RU,2021-03-04 19:52:10
141,Torbay,47.6666,-52.7314,35.01,69,75,18.41,CA,2021-03-04 19:52:10
142,Souillac,-20.5167,57.5167,75.2,88,20,6.91,MU,2021-03-04 19:52:11
143,Alvdal,62.1077,10.6307,24.8,80,75,16.11,NO,2021-03-04 19:52:11
144,Srivardhan,18.0333,73.0167,78.26,41,0,4.16,IN,2021-03-04 19:52:11
145,Farmington,36.7281,-108.2187,45.0,70,75,10.36,US,2021-03-04 19:52:11
146,Yulara,-25.2406,130.9889,82.4,24,58,10.36,AU,2021-03-04 19:52:11
147,Grand Gaube,-20.0064,57.6608,77.0,82,64,1.01,MU,2021-03-04 19:52:12
148,Sao Filipe,14.8961,-24.4956,71.67,73,100,13.78,CV,2021-03-04 19:52:12
149,Bara,10.3744,10.7288,84.65,14,0,11.79,NG,2021-03-04 19:52:12
150,Poronaysk,49.2167,143.1167,33.28,93,97,10.85,RU,2021-03-04 19:48:06
151,Rocha,-34.4833,-54.3333,75.36,81,100,9.35,UY,2021-03-04 19:49:26
152,Comodoro Rivadavia,-45.8667,-67.5,59.0,94,90,6.91,AR,2021-03-04 19:49:08
153,Arraial Do Cabo,-22.9661,-42.0278,87.8,58,0,13.8,BR,2021-03-04 19:52:12
154,Glenwood Springs,39.5505,-107.3248,44.01,93,90,9.22,US,2021-03-04 19:52:13
155,Sawakin,19.1059,37.3321,71.47,75,32,17.87,SD,2021-03-04 19:52:13
156,Katobu,-4.9408,122.5276,74.97,92,69,1.41,ID,2021-03-04 19:52:13
157,Cayenne,4.9333,-52.3333,84.2,70,75,12.66,GF,2021-03-04 19:52:14
158,Progreso,21.2833,-89.6667,81.0,69,75,9.22,MX,2021-03-04 19:52:14
159,Hibbing,47.4272,-92.9377,37.4,51,1,10.36,US,2021-03-04 19:47:22
160,Yambio,4.5721,28.3955,77.58,26,24,3.11,SS,2021-03-04 19:52:14
161,Luena,-11.7833,19.9167,63.0,95,92,3.04,AO,2021-03-04 19:52:15
162,Naze,28.3667,129.4833,62.26,88,56,15.03,JP,2021-03-04 19:49:57
163,Ugoofaaru,5.6667,73.0,81.61,78,3,15.77,MV,2021-03-04 19:52:15
164,Ippy,6.2679,21.2247,81.14,19,0,3.69,CF,2021-03-04 19:52:16
165,Krasnoselkup,65.7,82.4667,9.05,95,97,11.65,RU,2021-03-04 19:52:16
166,Nome,64.5011,-165.4064,1.4,78,90,42.57,US,2021-03-04 19:52:16
167,Bonavista,48.6499,-53.1147,35.01,80,99,12.66,CA,2021-03-04 19:52:16
168,Vestmannaeyjar,63.4427,-20.2734,40.03,73,26,4.79,IS,2021-03-04 19:52:16
169,Mahajanga,-15.7167,46.3167,82.4,78,40,9.22,MG,2021-03-04 19:52:16
170,Padang,-0.9492,100.3543,78.8,89,75,4.61,ID,2021-03-04 19:50:15
171,Jaciara,-15.9653,-54.9683,77.41,81,100,4.25,BR,2021-03-04 19:52:17
172,Vao,-22.6667,167.4833,77.11,77,99,16.58,NC,2021-03-04 19:52:17
173,Ilulissat,69.2167,-51.1,26.6,68,40,9.22,GL,2021-03-04 19:52:17
174,Boa Vista,2.8197,-60.6733,89.6,48,75,9.22,BR,2021-03-04 19:52:17
175,Narsaq,60.9167,-46.05,50.0,32,75,39.12,GL,2021-03-04 19:52:18
176,Oranjemund,-28.55,16.4333,63.82,81,0,15.88,NA,2021-03-04 19:52:18
177,Santa Fe,-31.6333,-60.7,84.99,56,93,7.0,AR,2021-03-04 19:49:56
178,Qui Nhon,13.7667,109.2333,73.15,91,35,4.5,VN,2021-03-04 19:52:18
179,Dryden,49.7833,-92.7503,33.8,44,90,5.75,CA,2021-03-04 19:52:18
180,Kodiak,57.79,-152.4072,30.2,59,1,11.5,US,2021-03-04 19:52:19
181,Lake City,30.1897,-82.6393,73.99,26,1,6.91,US,2021-03-04 19:49:13
182,Port Lincoln,-34.7333,135.8667,61.14,83,82,14.67,AU,2021-03-04 19:52:19
183,Adrar,20.5022,-10.0711,76.08,16,100,10.09,MR,2021-03-04 19:52:19
184,Vershino-Darasunskiy,52.35,115.5167,-23.71,86,0,3.15,RU,2021-03-04 19:52:19
185,Dongsheng,39.8161,109.9776,34.54,71,0,14.27,CN,2021-03-04 19:52:20
186,Cabo San Lucas,22.8909,-109.9124,81.0,36,75,9.22,MX,2021-03-04 19:48:30
187,Mahebourg,-20.4081,57.7,75.2,88,20,6.91,MU,2021-03-04 19:52:20
188,Severo-Kurilsk,50.6789,156.125,30.83,97,86,25.77,RU,2021-03-04 19:52:20
189,Cap Malheureux,-19.9842,57.6142,77.0,82,54,1.01,MU,2021-03-04 19:52:21
190,Lac Du Bonnet,50.2536,-96.0612,37.65,88,25,1.83,CA,2021-03-04 19:52:21
191,Mehamn,71.0357,27.8492,26.6,74,75,8.05,NO,2021-03-04 19:52:22
192,Altagracia De Orituco,9.8601,-66.3814,87.19,46,36,7.92,VE,2021-03-04 19:52:22
193,Flinders,-34.5833,150.8552,64.99,79,3,1.01,AU,2021-03-04 19:52:22
194,The Pas,53.8251,-101.2541,30.2,69,1,9.22,CA,2021-03-04 19:52:22
195,Saldanha,-33.0117,17.9442,64.4,68,0,9.22,ZA,2021-03-04 19:50:03
196,Bood,9.7451,123.8278,77.0,88,20,5.75,PH,2021-03-04 19:52:23
197,Toccoa,34.5773,-83.3324,73.0,18,1,3.44,US,2021-03-04 19:52:23
198,Buckeye,33.3703,-112.5838,70.0,36,0,3.0,US,2021-03-04 19:52:23
199,Sulangan,11.1373,123.7228,80.22,81,31,13.04,PH,2021-03-04 19:52:24
200,Ulladulla,-35.35,150.4667,61.0,94,0,5.75,AU,2021-03-04 19:52:24
201,Aranda De Duero,41.6704,-3.6892,50.29,57,5,3.11,ES,2021-03-04 19:52:24
202,Mount Gambier,-37.8333,140.7667,53.6,87,75,6.91,AU,2021-03-04 19:52:24
203,Esperance,-33.8667,121.9,64.4,88,40,12.66,AU,2021-03-04 19:49:55
204,Truth Or Consequences,33.1284,-107.2528,68.0,15,1,9.22,US,2021-03-04 19:48:00
205,Vila,42.0304,-8.1588,55.0,70,100,4.0,PT,2021-03-04 19:52:25
206,Vulcan,45.3833,23.2667,39.27,54,0,3.76,RO,2021-03-04 19:52:25
207,Margate,51.3813,1.3862,42.01,74,99,7.0,GB,2021-03-04 19:52:26
208,Manta,-0.95,-80.7333,84.2,70,40,11.5,EC,2021-03-04 19:52:26
209,Rorvik,64.8621,11.2373,30.2,93,90,6.91,NO,2021-03-04 19:52:26
210,Filadelfia,39.9523,-75.1638,48.2,34,75,17.27,US,2021-03-04 19:50:11
211,Leshukonskoye,64.8989,45.7622,-0.78,93,98,4.74,RU,2021-03-04 19:52:27
212,Avarua,-21.2078,-159.775,80.6,89,20,8.05,CK,2021-03-04 19:52:27
213,Pangnirtung,66.1451,-65.7125,12.2,62,75,16.11,CA,2021-03-04 19:52:27
214,Kruisfontein,-34.0033,24.7314,69.01,84,52,4.0,ZA,2021-03-04 19:50:25
215,Tagusao,9.1924,117.8141,76.73,84,2,4.27,PH,2021-03-04 19:52:28
216,Tilichiki,60.4667,166.1,-17.68,86,98,12.75,RU,2021-03-04 19:52:28
217,Verkhoyansk,67.5447,133.385,-19.37,85,100,2.33,RU,2021-03-04 19:52:28
218,Tiksi,71.6872,128.8694,-22.63,87,98,5.7,RU,2021-03-04 19:52:28
219,Tessalit,20.1986,1.0114,73.45,14,92,5.32,ML,2021-03-04 19:50:22
220,Vrangel,42.7297,133.0839,34.0,91,0,2.15,RU,2021-03-04 19:52:29
221,Touros,-5.1989,-35.4608,84.2,70,40,14.97,BR,2021-03-04 19:52:29
222,Faanui,-16.4833,-151.75,82.45,75,100,14.07,PF,2021-03-04 19:52:29
223,Tazovskiy,67.4667,78.7,9.07,94,99,12.71,RU,2021-03-04 19:52:30
224,Vanimo,-2.6741,141.3028,77.27,83,100,5.99,PG,2021-03-04 19:52:30
225,Tasiilaq,65.6145,-37.6368,33.8,86,90,2.3,GL,2021-03-04 19:49:26
226,Mareeba,-17.0,145.4333,77.0,83,90,6.91,AU,2021-03-04 19:52:30
227,Chapada Dos Guimaraes,-15.4606,-55.7497,87.8,55,40,9.22,BR,2021-03-04 19:52:31
228,Hovd,48.0056,91.6419,13.91,75,0,0.74,MN,2021-03-04 19:52:31
229,Lebu,-37.6167,-73.65,64.47,70,0,17.18,CL,2021-03-04 19:49:13
230,Te Anau,-45.4167,167.7167,49.77,87,99,3.4,NZ,2021-03-04 19:52:32
231,Shawnee,39.05,-95.7669,72.0,21,1,12.66,US,2021-03-04 19:51:19
232,Madoc,44.5084,-77.4745,28.99,36,0,7.0,CA,2021-03-04 19:52:32
233,Carmen,18.6333,-91.8333,78.8,78,40,8.05,MX,2021-03-04 19:52:32
234,Henties Bay,-22.116,14.2845,70.79,65,0,8.12,NA,2021-03-04 19:49:38
235,Roma,43.2128,-75.4557,28.99,46,1,19.57,US,2021-03-04 19:47:45
236,Cairns,-16.9167,145.7667,77.0,83,100,6.91,AU,2021-03-04 19:51:43
237,Ranong,9.9658,98.6348,76.75,83,55,5.3,TH,2021-03-04 19:52:33
238,Kirakira,-10.4544,161.9205,79.5,86,100,11.3,SB,2021-03-04 19:52:34
239,Saint-Augustin,51.226,-58.6502,23.65,97,100,20.58,CA,2021-03-04 19:52:34
240,Agadez,19.75,10.25,73.11,9,0,8.68,NE,2021-03-04 19:52:34
241,Kulhudhuffushi,6.6221,73.07,81.66,77,0,14.12,MV,2021-03-04 19:52:34
242,Goderich,43.7501,-81.7165,21.2,73,68,17.27,CA,2021-03-04 19:52:34
243,Shimanovsk,52.0,127.7,-15.36,79,0,14.27,RU,2021-03-04 19:52:35
244,Shitanjing,39.2342,106.3439,34.56,73,11,6.33,CN,2021-03-04 19:52:35
245,Khani,41.9563,42.9566,32.0,93,0,2.3,GE,2021-03-04 19:52:35
246,Lerwick,60.1545,-1.1494,35.6,75,90,6.91,GB,2021-03-04 19:52:36
247,Santa Cruz,-17.8,-63.1667,86.0,65,75,8.05,BO,2021-03-04 19:50:41
248,Fort Collins,40.5853,-105.0844,46.99,46,90,9.22,US,2021-03-04 19:52:36
249,Rio Gallegos,-51.6226,-69.2181,68.0,24,0,12.66,AR,2021-03-04 19:52:36
250,Tuatapere,-46.1333,167.6833,55.0,79,96,4.0,NZ,2021-03-04 19:52:36
251,Talnakh,69.4865,88.3972,-6.11,89,100,9.33,RU,2021-03-04 19:52:36
252,Nanortalik,60.1432,-45.2371,37.87,85,97,12.62,GL,2021-03-04 19:52:37
253,Khasan,42.4308,130.6434,34.48,87,0,3.0,RU,2021-03-04 19:52:37
254,Surab,28.4914,66.2585,52.66,40,0,4.14,PK,2021-03-04 19:52:37
255,Srednekolymsk,67.45,153.6833,-10.95,89,100,18.86,RU,2021-03-04 19:52:38
256,Medea,36.2642,2.7539,55.4,88,40,2.3,DZ,2021-03-04 19:49:28
257,Umm Lajj,25.0213,37.2685,65.59,47,0,14.72,SA,2021-03-04 19:52:38
258,Nikolskoye,59.7035,30.7861,28.4,50,75,11.18,RU,2021-03-04 19:52:38
259,North Bend,43.4065,-124.2243,59.0,54,90,10.36,US,2021-03-04 19:49:58
260,Calama,-22.4667,-68.9333,73.4,35,20,23.02,CL,2021-03-04 19:52:39
261,Port-Gentil,-0.7193,8.7815,82.4,89,40,6.91,GA,2021-03-04 19:52:39
262,Rudnogorsk,57.2639,103.7519,-11.22,88,100,3.04,RU,2021-03-04 19:52:39
263,Lufilufi,-13.8745,-171.5986,82.4,89,20,13.38,WS,2021-03-04 19:49:28
264,Wajima,37.4,136.9,50.14,72,64,3.11,JP,2021-03-04 19:52:40
265,Trud,42.2333,24.7333,52.0,75,20,4.61,BG,2021-03-04 19:52:40
266,Alice Springs,-23.7,133.8833,71.6,21,21,8.05,AU,2021-03-04 19:50:06
267,Sitka,57.0531,-135.33,37.4,87,40,3.44,US,2021-03-04 19:52:41
268,Amga,60.8953,131.9608,-32.82,82,96,3.85,RU,2021-03-04 19:52:41
269,Alberton,46.8168,-64.0654,28.4,68,100,20.71,CA,2021-03-04 19:52:41
270,Sesheke,-17.4759,24.2968,65.86,68,89,2.59,ZM,2021-03-04 19:52:41
271,Bereda,43.2686,-7.5406,52.0,83,100,1.99,ES,2021-03-04 19:52:41
272,Cherskiy,68.75,161.3,-17.59,88,100,5.37,RU,2021-03-04 19:52:42
273,Xining,36.6167,101.7667,28.9,72,71,1.92,CN,2021-03-04 19:52:42
274,Abha,18.2164,42.5053,60.8,88,0,5.75,SA,2021-03-04 19:49:46
275,Wewak,-3.5534,143.6268,77.79,82,100,6.93,PG,2021-03-04 19:52:42
276,Batagay-Alyta,67.8006,130.4114,-23.35,81,99,3.29,RU,2021-03-04 19:52:42
277,Concordia,-31.393,-58.0209,71.6,88,90,13.8,AR,2021-03-04 19:52:43
278,Sosnovo-Ozerskoye,52.5249,111.5418,-26.03,80,0,1.36,RU,2021-03-04 19:52:43
279,Makakilo City,21.3469,-158.0858,73.4,64,1,6.91,US,2021-03-04 19:52:43
280,Maniitsoq,65.4167,-52.9,35.38,80,86,10.02,GL,2021-03-04 19:52:44
281,Jacareacanga,-6.2222,-57.7528,91.4,55,0,4.61,BR,2021-03-04 19:52:44
282,Ambulu,-8.345,113.6058,75.15,85,100,3.36,ID,2021-03-04 19:52:44
283,Lakselv,70.0513,24.9718,19.4,79,40,8.05,NO,2021-03-04 19:52:44
284,Montivilliers,49.5452,0.1877,41.0,93,90,9.22,FR,2021-03-04 19:52:45
285,Guatire,10.4762,-66.5427,89.6,66,40,6.91,VE,2021-03-04 19:52:45
286,Yizheng,24.6706,103.4296,48.56,58,1,6.91,CN,2021-03-04 19:52:45
287,Atasu,48.6814,71.6433,25.79,97,96,16.93,KZ,2021-03-04 19:52:45
288,Manali,13.1667,80.2667,75.2,78,20,1.68,IN,2021-03-04 19:52:46
289,Port Hedland,-20.3167,118.5667,75.2,64,0,11.5,AU,2021-03-04 19:49:08
290,Aksu,41.1231,80.2644,42.75,59,99,5.79,CN,2021-03-04 19:52:46
291,Vostok,46.4856,135.8833,25.61,98,90,6.85,RU,2021-03-04 19:52:46
292,Ancud,-41.8697,-73.8203,73.4,46,0,8.05,CL,2021-03-04 19:52:47
293,Itatinga,-23.1017,-48.6158,73.29,86,99,6.42,BR,2021-03-04 19:52:47
294,Aklavik,68.2191,-135.0107,-20.2,69,20,9.22,CA,2021-03-04 19:52:47
295,Rangia,26.4667,91.6333,62.6,63,40,2.19,IN,2021-03-04 19:52:47
296,Malaya Purga,56.5567,53.0043,27.0,91,89,5.01,RU,2021-03-04 19:52:48
297,Saint George,37.1041,-113.5841,60.01,44,40,3.44,US,2021-03-04 19:51:58
298,Mackay,-21.15,149.2,73.4,83,75,8.05,AU,2021-03-04 19:52:48
299,Kasempa,-13.4584,25.8338,64.45,92,97,0.94,ZM,2021-03-04 19:52:48
300,Ostrovnoy,68.0531,39.5131,14.11,92,100,12.75,RU,2021-03-04 19:52:48
301,Kalmunai,7.4167,81.8167,76.73,74,27,5.35,LK,2021-03-04 19:52:49
302,Caravelas,-17.7125,-39.2481,80.53,64,40,7.31,BR,2021-03-04 19:52:49
303,Breves,-1.6822,-50.4803,82.29,82,94,4.07,BR,2021-03-04 19:52:49
304,Kampot,10.6167,104.1833,78.8,83,20,13.8,KH,2021-03-04 19:52:49
305,Orodara,10.9492,-4.9342,85.91,18,74,1.59,BF,2021-03-04 19:52:50
306,Ghanzi,-21.5667,21.7833,71.78,47,48,4.85,BW,2021-03-04 19:52:50
307,Hay River,60.8156,-115.7999,-2.2,77,100,11.5,CA,2021-03-04 19:52:50
308,Monkey Bay,-14.0728,34.9201,77.5,75,100,2.28,MW,2021-03-04 19:52:51
309,Quatre Cocos,-20.2078,57.7625,77.0,88,20,6.91,MU,2021-03-04 19:52:51
310,Waingapu,-9.6567,120.2641,77.5,78,94,5.39,ID,2021-03-04 19:52:51
311,Chropyne,49.3564,17.3645,39.0,99,29,1.99,CZ,2021-03-04 19:52:51
312,Meulaboh,4.1363,96.1285,77.41,87,46,4.43,ID,2021-03-04 19:52:52
313,Karatau,43.1667,70.4667,36.45,82,100,14.58,KZ,2021-03-04 19:52:52
314,Howard Springs,-12.497,131.047,78.8,89,81,3.44,AU,2021-03-04 19:52:52
315,San Lawrenz,36.0553,14.204,55.99,82,20,9.22,MT,2021-03-04 19:52:52
316,Zhangjiakou,40.81,114.8794,39.52,53,94,2.17,CN,2021-03-04 19:52:53
317,Cuamba,-14.8031,36.5372,70.86,93,100,3.42,MZ,2021-03-04 19:52:53
318,Tual,-5.6667,132.75,82.89,76,95,15.55,ID,2021-03-04 19:52:53
319,Vanavara,60.34,102.2797,-6.57,90,100,7.92,RU,2021-03-04 19:52:53
320,Guerrero Negro,27.9769,-114.0611,65.28,49,91,15.95,MX,2021-03-04 19:52:54
321,Buchanan,5.8808,-10.0467,80.6,83,40,7.14,LR,2021-03-04 19:52:54
322,Udala,43.0778,-2.5125,51.01,86,0,2.06,ES,2021-03-04 19:52:54
323,San Cristobal,7.7669,-72.225,87.8,51,20,11.5,VE,2021-03-04 19:52:54
324,Antigonish,45.6169,-61.9986,39.2,38,3,16.11,CA,2021-03-04 19:52:55
325,Yenagoa,4.9247,6.2642,79.86,84,89,5.61,NG,2021-03-04 19:52:55
326,Moron,-34.6534,-58.6198,87.01,53,79,7.0,AR,2021-03-04 19:49:38
327,Port Moresby,-9.4431,147.1797,76.19,80,100,11.99,PG,2021-03-04 19:52:55
328,Mar Del Plata,-38.0023,-57.5575,75.2,88,75,5.75,AR,2021-03-04 19:49:11
329,Saint-Georges,12.0564,-61.7485,84.2,70,40,21.85,GD,2021-03-04 19:52:56
330,Belmonte,-15.8631,-38.8828,84.2,70,0,8.05,BR,2021-03-04 19:52:56
331,Kaiyuan,23.6977,103.3037,56.35,90,1,6.93,CN,2021-03-04 19:52:56
332,Petropavlovsk-Kamchatskiy,53.0452,158.6483,15.8,100,75,2.24,RU,2021-03-04 19:52:56
333,Oksfjord,70.2396,22.3479,26.6,86,75,10.36,NO,2021-03-04 19:52:56
334,Deputatskiy,69.3,139.9,-25.24,91,100,9.71,RU,2021-03-04 19:52:57
335,Bambous Virieux,-20.3428,57.7575,77.0,88,20,6.91,MU,2021-03-04 19:52:57
336,Langxiang,46.95,128.8833,13.44,95,100,5.91,CN,2021-03-04 19:52:57
337,Karratha,-20.7377,116.8463,78.46,64,16,13.11,AU,2021-03-04 19:51:45
338,Yantzaza,-3.8278,-78.7594,78.35,57,94,2.08,EC,2021-03-04 19:52:58
339,Tautira,-17.7333,-149.15,86.0,66,75,4.61,PF,2021-03-04 19:52:58
340,Karachev,53.1229,34.9852,29.37,98,100,8.01,RU,2021-03-04 19:52:58
341,Lixourion,38.2019,20.4314,52.72,69,0,3.58,GR,2021-03-04 19:52:58
342,Anadyr,64.75,177.4833,1.4,85,40,4.47,RU,2021-03-04 19:49:31
343,Miandrivazo,-19.5167,45.4667,76.46,83,100,2.95,MG,2021-03-04 19:52:59
344,Menongue,-14.6585,17.691,64.54,83,61,1.25,AO,2021-03-04 19:51:06
345,Penzance,50.1186,-5.5371,46.0,93,90,5.75,GB,2021-03-04 19:52:59
346,Taunggyi,20.7833,97.0333,55.15,40,0,3.44,MM,2021-03-04 19:52:59
347,Maragogi,-9.0122,-35.2225,80.22,79,0,11.36,BR,2021-03-04 19:49:10
348,Chapais,49.7834,-74.8492,3.2,72,90,19.57,CA,2021-03-04 19:53:00
349,Gardabani,41.4605,45.0928,41.0,52,0,11.5,GE,2021-03-04 19:53:00
350,Caluquembe,-13.7833,14.6833,61.25,86,32,3.62,AO,2021-03-04 19:53:00
351,Svetlaya,46.5389,138.3297,29.61,94,6,7.18,RU,2021-03-04 19:53:00
352,Victoria,22.2855,114.1577,68.0,90,99,9.84,HK,2021-03-04 19:52:15
353,Tazmalt,36.3868,4.3989,54.54,74,100,3.33,DZ,2021-03-04 19:53:01
354,Tibati,6.4667,12.6333,76.73,19,99,6.93,CM,2021-03-04 19:53:01
355,Gympie,-26.1898,152.665,60.01,99,0,3.22,AU,2021-03-04 19:53:01
356,Olafsvik,64.8945,-23.7142,41.36,86,99,11.45,IS,2021-03-04 19:49:45
357,Lexington,37.9887,-84.4777,55.99,26,1,12.66,US,2021-03-04 19:53:01
358,Simpang,-1.2667,104.0833,74.93,97,99,1.68,ID,2021-03-04 19:53:02
359,Irtyshskiy,58.3333,68.1333,20.71,98,96,6.85,RU,2021-03-04 19:53:02
360,Marzuq,14.4,46.4667,61.5,52,15,4.61,YE,2021-03-04 19:53:02
361,Nevelsk,46.6733,141.8633,33.8,86,90,20.13,RU,2021-03-04 19:53:02
362,Siilinjarvi,63.0833,27.6667,17.6,79,0,9.22,FI,2021-03-04 19:53:02
363,Tura,25.5198,90.2201,64.92,28,0,4.54,IN,2021-03-04 19:53:03
364,East London,-33.0153,27.9116,73.2,75,68,3.2,ZA,2021-03-04 19:53:03
365,Namibe,-15.1961,12.1522,75.06,81,89,2.13,AO,2021-03-04 19:53:03
366,Goris,41.9842,44.1158,33.48,85,13,4.21,GE,2021-03-04 19:53:04
367,Requena,39.4883,-1.1004,53.01,84,10,4.03,ES,2021-03-04 19:53:04
368,Urazovka,55.4013,45.6186,19.76,96,100,6.51,RU,2021-03-04 19:53:04
369,Longyearbyen,78.2186,15.6401,-0.4,71,20,12.66,SJ,2021-03-04 19:53:05
370,Wilmington,34.2257,-77.9447,70.0,23,1,9.22,US,2021-03-04 19:52:01
371,Bambanglipuro,-7.95,110.2833,77.14,85,99,3.04,ID,2021-03-04 19:53:05
372,Hurghada,27.2574,33.8129,64.4,39,0,8.05,EG,2021-03-04 19:53:05
373,Port-Cartier,50.0334,-66.8654,19.99,45,90,17.27,CA,2021-03-04 19:53:06
374,Bandarbeyla,9.4942,50.8122,76.24,79,100,11.99,SO,2021-03-04 19:53:06
375,San Juan Del Parana,-27.3,-55.9667,86.0,65,75,5.75,PY,2021-03-04 19:53:06
376,Chokurdakh,70.6333,147.9167,-10.44,90,100,22.01,RU,2021-03-04 19:49:31
377,Gunjur,13.2019,-16.7339,77.0,57,0,8.05,GM,2021-03-04 19:53:07
378,Mutsu,41.2894,141.2169,39.81,79,100,7.05,JP,2021-03-04 19:53:07
379,Honningsvag,70.9821,25.9704,26.6,86,75,10.36,NO,2021-03-04 19:53:07
380,Lorengau,-2.0226,147.2712,81.0,81,92,8.88,PG,2021-03-04 19:50:18
381,Sapa,5.1544,120.3241,80.11,82,29,9.46,PH,2021-03-04 19:53:07
382,Yerbogachen,61.2767,108.0108,-16.49,86,100,7.65,RU,2021-03-04 19:53:08
383,Saurimo,-9.6608,20.3916,67.93,89,100,4.63,AO,2021-03-04 19:51:01
384,Jishou,28.3167,109.7167,51.76,88,100,2.15,CN,2021-03-04 19:53:08
385,Kalocsa,46.5264,18.9858,50.0,61,91,5.91,HU,2021-03-04 19:53:08
386,Rio Grande,-32.035,-52.0986,75.2,94,75,9.22,BR,2021-03-04 19:49:12
387,Bukama,-9.2,25.85,70.41,88,75,1.41,CD,2021-03-04 19:53:09
388,Khorixas,-20.3667,14.9667,80.94,31,52,12.46,NA,2021-03-04 19:53:09
389,Nemuro,43.3236,145.575,37.78,90,100,26.17,JP,2021-03-04 19:53:09
390,Phan Thiet,10.9333,108.1,70.16,82,0,7.36,VN,2021-03-04 19:53:09
391,Nishihara,26.1842,127.7558,66.2,68,90,8.05,JP,2021-03-04 19:53:10
392,Korla,41.7597,86.1469,38.82,71,0,4.41,CN,2021-03-04 19:53:10
393,Ambilobe,-13.2,49.05,76.42,90,79,2.26,MG,2021-03-04 19:53:10
394,Sarangani,5.4033,125.4636,82.0,70,100,5.59,PH,2021-03-04 19:53:10
395,Arak,34.0917,49.6892,46.0,66,38,2.64,IR,2021-03-04 19:53:10
396,Taoudenni,22.6783,-3.9836,73.38,19,0,11.14,ML,2021-03-04 19:53:11
397,Klyuchi,52.2667,79.1667,20.44,97,98,17.27,RU,2021-03-04 19:53:11
398,Namatanai,-3.6667,152.4333,78.49,81,62,2.42,PG,2021-03-04 19:53:11
399,San Juan Bautista,-14.0108,-75.7358,80.01,78,40,12.66,PE,2021-03-04 19:53:12
400,Aljezur,37.3191,-8.8033,54.1,88,99,1.39,PT,2021-03-04 19:53:12
401,Takahashi,34.7833,133.6167,48.99,96,100,12.57,JP,2021-03-04 19:53:12
402,Bogande,12.9714,-0.1436,87.87,13,0,9.13,BF,2021-03-04 19:53:12
403,Rognan,67.0953,15.3878,30.0,90,96,7.74,NO,2021-03-04 19:53:13
404,Kyshtovka,56.555,76.6271,29.37,98,100,16.4,RU,2021-03-04 19:53:13
405,Leningradskiy,69.3833,178.4167,1.08,91,100,32.88,RU,2021-03-04 19:49:15
406,Whitefish,48.4111,-114.3376,48.99,46,1,3.44,US,2021-03-04 19:53:13
407,Moose Factory,51.2585,-80.6094,5.0,39,1,16.11,CA,2021-03-04 19:53:14
408,Curuguaty,-24.4694,-55.6945,79.83,93,100,3.0,PY,2021-03-04 19:53:14
409,Tuy Hoa,13.0833,109.3,71.6,92,17,1.39,VN,2021-03-04 19:53:14
410,Bilibino,68.0546,166.4372,-11.11,87,100,4.29,RU,2021-03-04 19:53:14
411,Antofagasta,-23.65,-70.4,75.99,68,20,16.11,CL,2021-03-04 19:53:15
412,Linxia,35.6003,103.2064,35.19,64,100,2.77,CN,2021-03-04 19:53:15
413,Phulji,26.8825,67.6807,71.51,22,0,3.62,PK,2021-03-04 19:53:15
414,Nago,26.5881,127.9761,66.2,88,75,5.75,JP,2021-03-04 19:53:15
415,Kachug,53.9606,105.8817,-22.16,81,25,2.08,RU,2021-03-04 19:53:16
416,Eten,-6.9081,-79.8642,84.2,58,0,12.66,PE,2021-03-04 19:53:16
417,Rawah,34.4816,41.9093,53.53,77,100,8.19,IQ,2021-03-04 19:53:16
418,Iqaluit,63.7506,-68.5145,23.0,50,90,11.5,CA,2021-03-04 19:49:26
419,Mayo,38.8876,-76.5119,53.01,40,40,14.97,US,2021-03-04 19:53:17
420,Jurm,36.8648,70.8342,37.98,72,98,1.9,AF,2021-03-04 19:53:17
421,Bowen,-20.0167,148.2333,75.2,83,75,9.22,AU,2021-03-04 19:53:17
422,Imbituba,-28.24,-48.6703,82.4,74,75,13.8,BR,2021-03-04 19:53:18
423,Avera,33.194,-82.5271,69.8,24,1,6.91,US,2021-03-04 19:53:18
424,Porto Empedocle,37.2934,13.5264,50.0,87,70,4.43,IT,2021-03-04 19:53:18
425,Katastarion,37.8333,20.7667,48.2,93,0,5.44,GR,2021-03-04 19:53:18
426,Carutapera,-1.195,-46.02,80.02,85,100,6.2,BR,2021-03-04 19:53:19
427,Ossora,59.2353,163.0719,-13.72,78,0,12.19,RU,2021-03-04 19:53:19
428,Palmer,42.1584,-72.3287,36.0,41,75,17.27,US,2021-03-04 19:49:59
429,Langres,47.8333,5.3333,46.4,93,75,6.8,FR,2021-03-04 19:53:20
430,Voi,-3.3945,38.563,74.03,78,61,3.69,KE,2021-03-04 19:53:20
431,Melilla,35.2937,-2.9383,59.0,82,40,8.05,ES,2021-03-04 19:53:20
432,Road Town,18.4167,-64.6167,82.4,69,20,6.91,VG,2021-03-04 19:53:20
433,Karoi,-16.8099,29.6925,63.57,94,54,3.36,ZW,2021-03-04 19:53:20
434,Lethem,3.3803,-59.7968,94.93,36,60,11.39,GY,2021-03-04 19:53:20
435,Salinas,36.6777,-121.6555,59.0,58,1,9.22,US,2021-03-04 19:53:21
436,Tripoli,32.8752,13.1875,61.12,59,100,25.12,LY,2021-03-04 19:53:21
437,Port Hardy,50.6996,-127.4199,48.2,71,90,32.21,CA,2021-03-04 19:53:21
438,Monteiro,-7.8894,-37.12,82.36,53,90,12.33,BR,2021-03-04 19:53:21
439,Quelimane,-17.8786,36.8883,77.0,100,75,8.05,MZ,2021-03-04 19:53:22
440,Cumana,10.4635,-64.1775,78.89,78,12,15.12,VE,2021-03-04 19:50:36
441,Harlingen,26.1906,-97.6961,78.8,57,90,11.5,US,2021-03-04 19:52:15
442,Coolum Beach,-26.5333,153.1,70.0,94,14,3.02,AU,2021-03-04 19:53:22
443,Great Falls,47.5002,-111.3008,55.99,28,47,6.91,US,2021-03-04 19:53:07
444,Carlton,45.2943,-123.1765,51.8,71,90,5.99,US,2021-03-04 19:53:23
445,Tezu,27.9167,96.1667,65.16,53,99,2.73,IN,2021-03-04 19:53:23
446,Vila Velha,-20.3297,-40.2925,86.0,58,20,17.27,BR,2021-03-04 19:53:24
447,Klamath Falls,42.2249,-121.7817,51.8,24,1,28.77,US,2021-03-04 19:49:12
448,Cedar City,37.6775,-113.0619,48.99,45,40,9.06,US,2021-03-04 19:53:24
449,Tuktoyaktuk,69.4541,-133.0374,-22.0,69,20,3.44,CA,2021-03-04 19:53:24
450,Puerto Suarez,-18.95,-57.8,84.2,78,90,4.61,BO,2021-03-04 19:53:24
451,Sur,22.5667,59.5289,77.54,44,0,5.3,OM,2021-03-04 19:53:24
452,Dolores,-36.3132,-57.6792,85.24,44,1,6.67,AR,2021-03-04 19:53:25
453,Sokoto,13.0609,5.239,83.03,14,0,10.25,NG,2021-03-04 19:53:25
454,Codrington,-38.2667,141.9667,56.7,73,83,10.76,AU,2021-03-04 19:53:25
455,Aripuana,-9.1667,-60.6333,78.49,82,100,1.92,BR,2021-03-04 19:53:25
456,Mayor Pablo Lagerenza,-19.9309,-60.7718,93.15,43,95,3.29,PY,2021-03-04 19:53:26
457,Bay Roberts,47.5999,-53.2648,36.0,70,91,5.01,CA,2021-03-04 19:51:35
458,Yaval,21.1667,75.7,78.85,16,0,6.02,IN,2021-03-04 19:53:26
459,Mosquera,4.7059,-74.2302,55.4,88,75,8.05,CO,2021-03-04 19:53:27
460,Ust-Kut,56.7938,105.7672,-15.48,83,100,3.6,RU,2021-03-04 19:53:27
461,Beloha,-25.1667,45.05,73.67,92,0,4.41,MG,2021-03-04 19:53:27
462,Kautokeino,69.0125,23.0412,10.04,91,92,7.2,NO,2021-03-04 19:53:28
463,Evensk,61.95,159.2333,-24.0,74,100,7.56,RU,2021-03-04 19:53:20
464,Santa Isabel Do Rio Negro,-0.4139,-65.0192,74.64,97,100,3.29,BR,2021-03-04 19:53:28
465,Monte Azul,-15.155,-42.8747,82.63,55,23,3.42,BR,2021-03-04 19:53:28
466,Inverurie,57.2845,-2.3774,37.4,75,90,5.75,GB,2021-03-04 19:53:29
467,Sangerhausen,51.4667,11.3,37.0,90,100,8.16,DE,2021-03-04 19:53:29
468,Kondinskoye,59.6481,67.41,15.85,97,91,6.13,RU,2021-03-04 19:53:29
469,Half Moon Bay,37.4636,-122.4286,60.01,71,1,9.22,US,2021-03-04 19:51:10
470,Teahupoo,-17.8333,-149.2667,86.0,66,75,4.61,PF,2021-03-04 19:53:29
471,Mabaruma,8.2,-59.7833,78.12,92,97,5.82,GY,2021-03-04 19:53:30
472,Pevek,69.7008,170.3133,-2.58,91,100,5.99,RU,2021-03-04 19:50:00
473,Smiltene,57.4244,25.9016,28.0,81,0,1.99,LV,2021-03-04 19:53:30
474,Najran,17.4924,44.1277,73.4,21,0,2.53,SA,2021-03-04 19:53:30
475,Juneau,58.3019,-134.4197,39.2,81,20,3.44,US,2021-03-04 19:53:19
476,Palu,-0.8917,119.8707,74.52,95,87,2.33,ID,2021-03-04 19:53:31
477,Port Hawkesbury,45.6169,-61.3485,39.2,44,1,19.57,CA,2021-03-04 19:53:31
478,Slave Lake,55.2834,-114.769,35.6,69,20,9.22,CA,2021-03-04 19:53:31
479,Nicoya,10.1483,-85.452,89.6,35,0,27.63,CR,2021-03-04 19:53:31
480,Vilhena,-12.7406,-60.1458,82.4,69,40,12.66,BR,2021-03-04 19:49:45
481,Kayes,14.0,-11.0,90.55,12,37,4.97,ML,2021-03-04 19:53:32
482,Ixtapa,20.7,-105.2,77.0,65,1,10.36,MX,2021-03-04 19:50:16
483,Colgong,25.2667,87.2167,65.73,28,0,3.29,IN,2021-03-04 19:53:32
484,Grodzisk Wielkopolski,52.2276,16.3653,37.99,81,100,5.77,PL,2021-03-04 19:53:32
485,Saint Austell,50.3383,-4.7658,46.0,93,75,8.05,GB,2021-03-04 19:53:33
486,Vardo,70.3705,31.1107,26.6,63,40,23.02,NO,2021-03-04 19:53:06
487,Prince Rupert,54.3161,-130.3201,44.6,93,90,4.61,CA,2021-03-04 19:50:36
488,Chardara,41.2547,67.9692,44.67,63,100,15.37,KZ,2021-03-04 19:53:33
489,Lepley,54.3092,42.8599,25.63,98,100,1.97,RU,2021-03-04 19:53:33
490,Geraldton,-28.7667,114.6,68.0,88,0,8.05,AU,2021-03-04 19:53:33
491,Derbent,42.0678,48.2899,39.56,79,53,5.66,RU,2021-03-04 19:53:34
492,Rumonge,-3.9736,29.4386,73.54,73,100,2.93,BI,2021-03-04 19:53:34
493,Seoul,37.5683,126.9778,35.6,93,0,3.44,KR,2021-03-04 19:53:34
494,Kaohsiung,22.6163,120.3133,70.0,73,75,5.75,TW,2021-03-04 19:50:04
495,Boende,-0.2167,20.8667,81.75,54,53,1.34,CD,2021-03-04 19:50:02
496,Saint Anthony,45.0205,-93.218,44.6,39,75,9.22,US,2021-03-04 19:53:34
497,Namtsy,62.7161,129.6658,-32.8,68,0,8.95,RU,2021-03-04 19:53:35
498,Labelle,26.7617,-81.4384,71.6,53,40,10.36,US,2021-03-04 19:53:35
499,Tashigang,27.3331,91.5542,49.89,57,33,4.14,BT,2021-03-04 19:53:35
500,Los Llanos De Aridane,28.6585,-17.9182,66.2,72,20,14.97,ES,2021-03-04 19:53:35
501,San Carlos De Bariloche,-41.1456,-71.3082,82.4,18,0,4.61,AR,2021-03-04 19:52:25
502,Chenzhou,25.8,113.0333,58.62,96,6,2.51,CN,2021-03-04 19:53:36
503,Yueyang,29.3333,113.0919,54.52,88,96,3.76,CN,2021-03-04 19:53:36
504,Den Helder,52.9599,4.7593,39.2,87,75,11.5,NL,2021-03-04 19:53:36
505,Koumac,-20.5667,164.2833,78.08,83,100,9.78,NC,2021-03-04 19:53:36
506,Fengrun,39.8333,118.1167,42.37,83,0,3.38,CN,2021-03-04 19:53:36
507,Lamar,33.6668,-95.5836,70.0,40,1,10.36,US,2021-03-04 19:53:36
508,Coquimbo,-29.9533,-71.3436,64.4,82,75,11.5,CL,2021-03-04 19:50:04
509,Sayyan,15.1718,44.3244,58.78,33,0,2.06,YE,2021-03-04 19:53:37
510,Ponta Delgada,37.7333,-25.6667,57.2,77,20,19.57,PT,2021-03-04 19:53:37
511,Lagoa,39.05,-27.9833,57.2,66,100,6.76,PT,2021-03-04 19:53:02
512,Waipawa,-41.4122,175.5153,62.6,55,0,14.97,NZ,2021-03-04 19:53:06
513,Kandi,11.1342,2.9386,85.17,13,3,4.29,BJ,2021-03-04 19:53:37
514,Zhigansk,66.7697,123.3711,-36.9,82,3,0.67,RU,2021-03-04 19:53:38
515,Porangatu,-13.4408,-49.1486,81.19,79,74,3.67,BR,2021-03-04 19:53:38
516,Ciudad Guayana,8.3533,-62.6528,84.0,80,30,1.99,VE,2021-03-04 19:49:19
517,Ormara,25.2088,64.6357,76.37,70,0,5.64,PK,2021-03-04 19:49:59
518,Pozhva,59.0912,56.0847,20.84,98,100,8.39,RU,2021-03-04 19:53:38
519,Noumea,-22.2763,166.4572,80.01,94,90,3.44,NC,2021-03-04 19:51:41
520,Ciudad Del Maiz,22.4,-99.6,79.0,27,0,7.0,MX,2021-03-04 19:53:39
521,Shache,38.4167,77.2406,42.73,36,19,1.61,CN,2021-03-04 19:53:39
522,Trelew,-43.249,-65.3051,67.64,53,49,12.77,AR,2021-03-04 19:53:39
523,Novo Aripuana,-5.1206,-60.3797,85.46,61,78,4.18,BR,2021-03-04 19:53:39
524,Kingman,35.1894,-114.053,54.0,40,1,3.44,US,2021-03-04 19:53:40
525,Honiara,-9.4333,159.95,79.29,90,100,5.28,SB,2021-03-04 19:53:40
526,Berdigestyakh,62.0989,126.6992,-33.32,82,65,5.88,RU,2021-03-04 19:53:40
527,Lazaro Cardenas,17.9583,-102.2,81.82,56,2,9.57,MX,2021-03-04 19:53:41
528,Letlhakane,-21.4167,25.5833,75.43,43,28,6.44,BW,2021-03-04 19:53:41
529,Price,39.5994,-110.8107,42.8,65,75,4.0,US,2021-03-04 19:53:41
530,Hamilton,39.1834,-84.5333,53.01,35,1,16.11,US,2021-03-04 19:52:33
531,Susanino,58.1461,41.5872,10.78,96,23,4.07,RU,2021-03-04 19:53:42
532,Hambantota,6.1241,81.1185,77.0,94,1,5.75,LK,2021-03-04 19:49:35
533,Hofn,64.2539,-15.2082,40.14,70,0,4.59,IS,2021-03-04 19:53:42
534,Villarrica,-25.75,-56.4333,83.05,77,20,0.83,PY,2021-03-04 19:53:42
535,Surt,31.2089,16.5887,58.28,66,100,19.48,LY,2021-03-04 19:53:42
536,San Ignacio,17.1561,-89.0714,89.6,45,20,4.61,BZ,2021-03-04 19:53:42
537,Puerto Madryn,-42.7692,-65.0385,66.83,57,85,10.51,AR,2021-03-04 19:52:48
538,Yangambi,0.8102,24.4336,82.22,45,99,1.81,CD,2021-03-04 19:53:43
539,Pirapora,-17.345,-44.9419,81.93,62,82,2.98,BR,2021-03-04 19:52:00
540,Fairbanks,64.8378,-147.7164,3.0,84,75,2.89,US,2021-03-04 19:53:41
541,Barcelona,41.3888,2.159,55.99,88,40,2.3,ES,2021-03-04 19:52:42
542,Massakory,12.996,15.7293,79.86,15,42,15.05,TD,2021-03-04 19:53:44
543,Kerema,-7.9631,145.7785,76.62,79,100,2.51,PG,2021-03-04 19:53:44
544,Sai Buri,6.7013,101.6168,76.86,88,23,9.51,TH,2021-03-04 19:53:44
545,Kolobrzeg,54.1757,15.5834,33.01,78,45,11.99,PL,2021-03-04 19:53:44
546,Moerai,-22.4333,-151.3333,79.66,62,99,2.68,PF,2021-03-04 19:53:44
547,Carauari,-4.8828,-66.8958,83.5,72,86,4.61,BR,2021-03-04 19:49:23
548,Shakawe,-18.3667,21.85,70.92,60,70,1.34,BW,2021-03-04 19:53:45
549,Omsukchan,62.5333,155.8,-29.56,81,100,9.08,RU,2021-03-04 19:53:45
550,Revda,56.801,59.9303,21.2,79,20,8.95,RU,2021-03-04 19:53:45
551,Waw,7.7029,27.9953,78.85,16,0,3.15,SS,2021-03-04 19:53:46
552,Daliao,5.8611,124.9533,79.54,72,100,5.95,PH,2021-03-04 19:53:46
553,Nuuk,64.1835,-51.7216,37.4,70,75,14.97,GL,2021-03-04 19:53:46
554,Porto Belo,-27.1578,-48.5531,80.6,78,20,6.91,BR,2021-03-04 19:53:46
555,Santander,43.4647,-3.8044,54.0,87,0,4.61,ES,2021-03-04 19:53:47
556,Havoysund,70.9963,24.6622,26.6,86,75,10.36,NO,2021-03-04 19:49:40
557,Maraa,-1.8333,-65.3667,76.12,92,100,1.05,BR,2021-03-04 19:53:47
558,Pauini,-7.7136,-66.9764,88.03,55,77,3.2,BR,2021-03-04 19:53:48
559,Ulaangom,49.9811,92.0667,0.39,92,91,2.13,MN,2021-03-04 19:53:48
560,Luancheng,37.8792,114.6517,39.2,93,100,6.71,CN,2021-03-04 19:53:48
561,Luderitz,-26.6481,15.1594,72.21,56,0,17.4,NA,2021-03-04 19:53:49
562,Nantucket,41.2835,-70.0995,37.99,74,45,16.35,US,2021-03-04 19:53:49
563,Presidencia Roque Saenz Pena,-26.7852,-60.4388,89.01,53,77,3.0,AR,2021-03-04 19:53:49
564,Klaksvik,62.2266,-6.589,32.0,80,44,8.05,FO,2021-03-04 19:53:49
565,Marfino,55.7028,37.3822,30.2,80,0,6.71,RU,2021-03-04 19:53:50
566,Nurota,40.5614,65.6886,37.4,70,10,4.61,UZ,2021-03-04 19:53:50
567,Hervey Bay,-25.2986,152.8535,66.99,88,0,6.91,AU,2021-03-04 19:53:50
568,Shouguang,36.88,118.7375,55.99,64,95,1.01,CN,2021-03-04 19:53:50
569,Mendi,-6.1761,143.6513,54.88,96,100,2.95,PG,2021-03-04 19:53:50
570,Poso,-1.3959,120.7524,78.01,79,100,3.62,ID,2021-03-04 19:53:51
571,Mugumu,-1.85,34.7,62.78,93,96,2.68,TZ,2021-03-04 19:53:51
572,Kuching,1.55,110.3333,73.4,100,20,2.3,MY,2021-03-04 19:53:51
